[
    {
        "Code": "G03",
        "Name": "Addison Road",
        "Lon": -76.89410791,
        "LineCode4": null,
        "LineCode2": null,
        "LineCode3": null,
        "LineCode1": "BL",
        "StationTogether2": "",
        "Lat": 38.8867478168,
        "StationTogether1": ""
    },
    {
        "Code": "F06",
        "Name": "Anacostia",
        "Lon": -76.9953707387,
        "LineCode4": null,
        "LineCode2": null,
        "LineCode3": null,
        "LineCode1": "GR",
        "StationTogether2": "",
        "Lat": 38.8629631168,
        "StationTogether1": ""
    },
    {
        "Code": "F02",
        "Name": "Archives",
        "Lon": -77.0219143879,
        "LineCode4": null,
        "LineCode2": "YL",
        "LineCode3": null,
        "LineCode1": "GR",
        "StationTogether2": "",
        "Lat": 38.8936652235,
        "StationTogether1": ""
    },
    {
        "Code": "C06",
        "Name": "Arlington Cemetery",
        "Lon": -77.0628101291,
        "LineCode4": null,
        "LineCode2": null,
        "LineCode3": null,
        "LineCode1": "BL",
        "StationTogether2": "",
        "Lat": 38.8846868585,
        "StationTogether1": ""
    },
    {
        "Code": "K04",
        "Name": "Ballston",
        "Lon": -77.113168835,
        "LineCode4": null,
        "LineCode2": null,
        "LineCode3": null,
        "LineCode1": "OR",
        "StationTogether2": "",
        "Lat": 38.8821828738,
        "StationTogether1": ""
    },
    {
        "Code": "G01",
        "Name": "Benning Road",
        "Lon": -76.9383648681,
        "LineCode4": null,
        "LineCode2": null,
        "LineCode3": null,
        "LineCode1": "BL",
        "StationTogether2": "",
        "Lat": 38.890975676,
        "StationTogether1": ""
    },
    {
        "Code": "A09",
        "Name": "Bethesda",
        "Lon": -77.0941291922,
        "LineCode4": null,
        "LineCode2": null,
        "LineCode3": null,
        "LineCode1": "RD",
        "StationTogether2": "",
        "Lat": 38.9843936603,
        "StationTogether1": ""
    },
    {
        "Code": "C12",
        "Name": "Braddock Road",
        "Lon": -77.053667574,
        "LineCode4": null,
        "LineCode2": "YL",
        "LineCode3": null,
        "LineCode1": "BL",
        "StationTogether2": "",
        "Lat": 38.8141436672,
        "StationTogether1": ""
    },
    {
        "Code": "F11",
        "Name": "Branch Avenue",
        "Lon": -76.9114642177,
        "LineCode4": null,
        "LineCode2": null,
        "LineCode3": null,
        "LineCode1": "GR",
        "StationTogether2": "",
        "Lat": 38.8264463483,
        "StationTogether1": ""
    },
    {
        "Code": "B05",
        "Name": "Brookland",
        "Lon": -76.9945342851,
        "LineCode4": null,
        "LineCode2": null,
        "LineCode3": null,
        "LineCode1": "RD",
        "StationTogether2": "",
        "Lat": 38.9332109913,
        "StationTogether1": ""
    },
    {
        "Code": "G02",
        "Name": "Capitol Heights",
        "Lon": -76.9118081145,
        "LineCode4": null,
        "LineCode2": null,
        "LineCode3": null,
        "LineCode1": "BL",
        "StationTogether2": "",
        "Lat": 38.8894658568,
        "StationTogether1": ""
    },
    {
        "Code": "D05",
        "Name": "Capitol South",
        "Lon": -77.0051394199,
        "LineCode4": null,
        "LineCode2": "OR",
        "LineCode3": null,
        "LineCode1": "BL",
        "StationTogether2": "",
        "Lat": 38.8850625009,
        "StationTogether1": ""
    },
    {
        "Code": "D11",
        "Name": "Cheverly",
        "Lon": -76.916628044,
        "LineCode4": null,
        "LineCode2": null,
        "LineCode3": null,
        "LineCode1": "OR",
        "StationTogether2": "",
        "Lat": 38.9166318546,
        "StationTogether1": ""
    },
    {
        "Code": "K02",
        "Name": "Clarendon",
        "Lon": -77.0953940983,
        "LineCode4": null,
        "LineCode2": null,
        "LineCode3": null,
        "LineCode1": "OR",
        "StationTogether2": "",
        "Lat": 38.886704839,
        "StationTogether1": ""
    },
    {
        "Code": "A05",
        "Name": "Cleveland Park",
        "Lon": -77.0580425191,
        "LineCode4": null,
        "LineCode2": null,
        "LineCode3": null,
        "LineCode1": "RD",
        "StationTogether2": "",
        "Lat": 38.9347628908,
        "StationTogether1": ""
    },
    {
        "Code": "E09",
        "Name": "College Park",
        "Lon": -76.9281249818,
        "LineCode4": null,
        "LineCode2": null,
        "LineCode3": null,
        "LineCode1": "GR",
        "StationTogether2": "",
        "Lat": 38.9786336339,
        "StationTogether1": ""
    },
    {
        "Code": "E04",
        "Name": "Columbia Heights",
        "Lon": -77.0325521177,
        "LineCode4": null,
        "LineCode2": "YL",
        "LineCode3": null,
        "LineCode1": "GR",
        "StationTogether2": "",
        "Lat": 38.9278379675,
        "StationTogether1": ""
    },
    {
        "Code": "F07",
        "Name": "Congress Height",
        "Lon": -76.9885119326,
        "LineCode4": null,
        "LineCode2": null,
        "LineCode3": null,
        "LineCode1": "GR",
        "StationTogether2": "",
        "Lat": 38.8456577028,
        "StationTogether1": ""
    },
    {
        "Code": "K01",
        "Name": "Court House",
        "Lon": -77.087131231,
        "LineCode4": null,
        "LineCode2": null,
        "LineCode3": null,
        "LineCode1": "OR",
        "StationTogether2": "",
        "Lat": 38.8901755312,
        "StationTogether1": ""
    },
    {
        "Code": "C09",
        "Name": "Crystal City",
        "Lon": -77.0502898097,
        "LineCode4": null,
        "LineCode2": "YL",
        "LineCode3": null,
        "LineCode1": "BL",
        "StationTogether2": "",
        "Lat": 38.8579043204,
        "StationTogether1": ""
    },
    {
        "Code": "D10",
        "Name": "Deanwood",
        "Lon": -76.935256783,
        "LineCode4": null,
        "LineCode2": null,
        "LineCode3": null,
        "LineCode1": "OR",
        "StationTogether2": "",
        "Lat": 38.9081784965,
        "StationTogether1": ""
    },
    {
        "Code": "K07",
        "Name": "Dunn Loring",
        "Lon": -77.2271606721,
        "LineCode4": null,
        "LineCode2": null,
        "LineCode3": null,
        "LineCode1": "OR",
        "StationTogether2": "",
        "Lat": 38.8836251359,
        "StationTogether1": ""
    },
    {
        "Code": "A03",
        "Name": "Dupont Circle",
        "Lon": -77.0434143597,
        "LineCode4": null,
        "LineCode2": null,
        "LineCode3": null,
        "LineCode1": "RD",
        "StationTogether2": "",
        "Lat": 38.9095980575,
        "StationTogether1": ""
    },
    {
        "Code": "K05",
        "Name": "E Falls Church",
        "Lon": -77.1568830199,
        "LineCode4": null,
        "LineCode2": null,
        "LineCode3": null,
        "LineCode1": "OR",
        "StationTogether2": "",
        "Lat": 38.8859531663,
        "StationTogether1": ""
    },
    {
        "Code": "D06",
        "Name": "Eastern Market",
        "Lon": -76.9960011267,
        "LineCode4": null,
        "LineCode2": "OR",
        "LineCode3": null,
        "LineCode1": "BL",
        "StationTogether2": "",
        "Lat": 38.8846222608,
        "StationTogether1": ""
    },
    {
        "Code": "C14",
        "Name": "Eisenhower Avenue",
        "Lon": -77.0708743893,
        "LineCode4": null,
        "LineCode2": null,
        "LineCode3": null,
        "LineCode1": "YL",
        "StationTogether2": "",
        "Lat": 38.8004254497,
        "StationTogether1": ""
    },
    {
        "Code": "A02",
        "Name": "Farragut North",
        "Lon": -77.0397008272,
        "LineCode4": null,
        "LineCode2": null,
        "LineCode3": null,
        "LineCode1": "RD",
        "StationTogether2": "",
        "Lat": 38.9032019462,
        "StationTogether1": ""
    },
    {
        "Code": "C03",
        "Name": "Farragut West",
        "Lon": -77.0406954151,
        "LineCode4": null,
        "LineCode2": "OR",
        "LineCode3": null,
        "LineCode1": "BL",
        "StationTogether2": "",
        "Lat": 38.9013128941,
        "StationTogether1": ""
    },
    {
        "Code": "D04",
        "Name": "Federal Center SW",
        "Lon": -77.0158682169,
        "LineCode4": null,
        "LineCode2": "OR",
        "LineCode3": null,
        "LineCode1": "BL",
        "StationTogether2": "",
        "Lat": 38.8850723551,
        "StationTogether1": ""
    },
    {
        "Code": "D01",
        "Name": "Federal Triangle",
        "Lon": -77.0281319984,
        "LineCode4": null,
        "LineCode2": "OR",
        "LineCode3": null,
        "LineCode1": "BL",
        "StationTogether2": "",
        "Lat": 38.8931808718,
        "StationTogether1": ""
    },
    {
        "Code": "C04",
        "Name": "Foggy Bottom",
        "Lon": -77.050277739,
        "LineCode4": null,
        "LineCode2": "OR",
        "LineCode3": null,
        "LineCode1": "BL",
        "StationTogether2": "",
        "Lat": 38.9006980092,
        "StationTogether1": ""
    },
    {
        "Code": "B09",
        "Name": "Forest Glen",
        "Lon": -77.0429165548,
        "LineCode4": null,
        "LineCode2": null,
        "LineCode3": null,
        "LineCode1": "RD",
        "StationTogether2": "",
        "Lat": 39.0149542752,
        "StationTogether1": ""
    },
    {
        "Code": "B06",
        "Name": "Fort Totten",
        "Lon": -77.0022030768,
        "LineCode4": null,
        "LineCode2": null,
        "LineCode3": null,
        "LineCode1": "RD",
        "StationTogether2": "",
        "Lat": 38.9518467675,
        "StationTogether1": "E06"
    },
    {
        "Code": "E06",
        "Name": "Fort Totten",
        "Lon": -77.0022030768,
        "LineCode4": null,
        "LineCode2": "YL",
        "LineCode3": null,
        "LineCode1": "GR",
        "StationTogether2": "",
        "Lat": 38.9518467675,
        "StationTogether1": "B06"
    },
    {
        "Code": "J03",
        "Name": "Franconia-Springf'ld",
        "Lon": -77.1679701804,
        "LineCode4": null,
        "LineCode2": null,
        "LineCode3": null,
        "LineCode1": "BL",
        "StationTogether2": "",
        "Lat": 38.7665218926,
        "StationTogether1": ""
    },
    {
        "Code": "A08",
        "Name": "Friendship Heights",
        "Lon": -77.084995805,
        "LineCode4": null,
        "LineCode2": null,
        "LineCode3": null,
        "LineCode1": "RD",
        "StationTogether2": "",
        "Lat": 38.9594838736,
        "StationTogether1": ""
    },
    {
        "Code": "B01",
        "Name": "Gallery Place",
        "Lon": -77.0219153904,
        "LineCode4": null,
        "LineCode2": null,
        "LineCode3": null,
        "LineCode1": "RD",
        "StationTogether2": "",
        "Lat": 38.8983168097,
        "StationTogether1": "F01"
    },
    {
        "Code": "F01",
        "Name": "Gallery Place",
        "Lon": -77.0219153904,
        "LineCode4": null,
        "LineCode2": "YL",
        "LineCode3": null,
        "LineCode1": "GR",
        "StationTogether2": "",
        "Lat": 38.8983168097,
        "StationTogether1": "B01"
    },
    {
        "Code": "E05",
        "Name": "Georgia Avenue",
        "Lon": -77.023460904,
        "LineCode4": null,
        "LineCode2": "YL",
        "LineCode3": null,
        "LineCode1": "GR",
        "StationTogether2": "",
        "Lat": 38.9374346301,
        "StationTogether1": ""
    },
    {
        "Code": "B11",
        "Name": "Glenmont",
        "Lon": -77.0535573593,
        "LineCode4": null,
        "LineCode2": null,
        "LineCode3": null,
        "LineCode1": "RD",
        "StationTogether2": "",
        "Lat": 39.0617837655,
        "StationTogether1": ""
    },
    {
        "Code": "E10",
        "Name": "Greenbelt",
        "Lon": -76.9110575731,
        "LineCode4": null,
        "LineCode2": null,
        "LineCode3": null,
        "LineCode1": "GR",
        "StationTogether2": "",
        "Lat": 39.0111458605,
        "StationTogether1": ""
    },
    {
        "Code": "A11",
        "Name": "Grosvenor",
        "Lon": -77.10384972,
        "LineCode4": null,
        "LineCode2": null,
        "LineCode3": null,
        "LineCode1": "RD",
        "StationTogether2": "",
        "Lat": 39.02926895,
        "StationTogether1": ""
    },
    {
        "Code": "C15",
        "Name": "Huntington",
        "Lon": -77.0752057891,
        "LineCode4": null,
        "LineCode2": null,
        "LineCode3": null,
        "LineCode1": "YL",
        "StationTogether2": "",
        "Lat": 38.7939158529,
        "StationTogether1": ""
    },
    {
        "Code": "B02",
        "Name": "Judiciary Square",
        "Lon": -77.0166389566,
        "LineCode4": null,
        "LineCode2": null,
        "LineCode3": null,
        "LineCode1": "RD",
        "StationTogether2": "",
        "Lat": 38.8960903176,
        "StationTogether1": ""
    },
    {
        "Code": "C13",
        "Name": "King Street",
        "Lon": -77.0608112085,
        "LineCode4": null,
        "LineCode2": "YL",
        "LineCode3": null,
        "LineCode1": "BL",
        "StationTogether2": "",
        "Lat": 38.8065861172,
        "StationTogether1": ""
    },
    {
        "Code": "D03,F03",
        "Name": "L'Enfant Plaza",
        "Lon": -77.021908484,
        "LineCode4": "GR",
        "LineCode2": "OR",
        "LineCode3": "YL",
        "LineCode1": "BL",
        "StationTogether2": "",
        "Lat": 38.8848377279,
        "StationTogether1": "F03"
    },
    {
        "Code": "D12",
        "Name": "Landover",
        "Lon": -76.8911979676,
        "LineCode4": null,
        "LineCode2": null,
        "LineCode3": null,
        "LineCode1": "OR",
        "StationTogether2": "",
        "Lat": 38.9335062344,
        "StationTogether1": ""
    },
    {
        "Code": "G05",
        "Name": "Largo Town Center",
        "Lon": -76.8420375202,
        "LineCode4": null,
        "LineCode2": null,
        "LineCode3": null,
        "LineCode1": "BL",
        "StationTogether2": "",
        "Lat": 38.9050688072,
        "StationTogether1": ""
    },
    {
        "Code": "C02",
        "Name": "McPherson Square",
        "Lon": -77.0336341721,
        "LineCode4": null,
        "LineCode2": "OR",
        "LineCode3": null,
        "LineCode1": "BL",
        "StationTogether2": "",
        "Lat": 38.9013327968,
        "StationTogether1": ""
    },
    {
        "Code": "A10",
        "Name": "Medical Center",
        "Lon": -77.0969522905,
        "LineCode4": null,
        "LineCode2": null,
        "LineCode3": null,
        "LineCode1": "RD",
        "StationTogether2": "",
        "Lat": 39.0000564843,
        "StationTogether1": ""
    },
    {
        "Code": "C01,A01",
        "Name": "Metro Center",
        "Lon": -77.0280779971,
        "LineCode4": null,
        "LineCode2": "OR",
        "LineCode3": "RD",
        "LineCode1": "BL",
        "StationTogether2": "",
        "Lat": 38.8983144732,
        "StationTogether1": "A01"
    },
    {
        "Code": "D09",
        "Name": "Minnesota Avenue",
        "Lon": -76.9467477336,
        "LineCode4": null,
        "LineCode2": null,
        "LineCode3": null,
        "LineCode1": "OR",
        "StationTogether2": "",
        "Lat": 38.899191223,
        "StationTogether1": ""
    },
    {
        "Code": "G04",
        "Name": "Morgan Blvd",
        "Lon": -76.8680747681,
        "LineCode4": null,
        "LineCode2": null,
        "LineCode3": null,
        "LineCode1": "BL",
        "StationTogether2": "",
        "Lat": 38.8938349282,
        "StationTogether1": ""
    },
    {
        "Code": "E01",
        "Name": "Mt Vernon Sq",
        "Lon": -77.0219143803,
        "LineCode4": null,
        "LineCode2": "YL",
        "LineCode3": null,
        "LineCode1": "GR",
        "StationTogether2": "",
        "Lat": 38.9064368149,
        "StationTogether1": ""
    },
    {
        "Code": "C10",
        "Name": "National Arpt",
        "Lon": -77.0440422943,
        "LineCode4": null,
        "LineCode2": "YL",
        "LineCode3": null,
        "LineCode1": "BL",
        "StationTogether2": "",
        "Lat": 38.8534163859,
        "StationTogether1": ""
    },
    {
        "Code": "F05",
        "Name": "Navy Yard",
        "Lon": -77.0050856513,
        "LineCode4": null,
        "LineCode2": null,
        "LineCode3": null,
        "LineCode1": "GR",
        "StationTogether2": "",
        "Lat": 38.8764810849,
        "StationTogether1": ""
    },
    {
        "Code": "F09",
        "Name": "Naylor Road",
        "Lon": -76.9562627094,
        "LineCode4": null,
        "LineCode2": null,
        "LineCode3": null,
        "LineCode1": "GR",
        "StationTogether2": "",
        "Lat": 38.8513013835,
        "StationTogether1": ""
    },
    {
        "Code": "D13",
        "Name": "New Carrollton",
        "Lon": -76.8718412865,
        "LineCode4": null,
        "LineCode2": null,
        "LineCode3": null,
        "LineCode1": "OR",
        "StationTogether2": "",
        "Lat": 38.9477848558,
        "StationTogether1": ""
    },
    {
        "Code": "B35",
        "Name": "New York Avenue",
        "Lon": -77.0030204472,
        "LineCode4": null,
        "LineCode2": null,
        "LineCode3": null,
        "LineCode1": "RD",
        "StationTogether2": "",
        "Lat": 38.9070162121,
        "StationTogether1": ""
    },
    {
        "Code": "C07",
        "Name": "Pentagon",
        "Lon": -77.0537156734,
        "LineCode4": null,
        "LineCode2": "YL",
        "LineCode3": null,
        "LineCode1": "BL",
        "StationTogether2": "",
        "Lat": 38.8694627012,
        "StationTogether1": ""
    },
    {
        "Code": "C08",
        "Name": "Pentagon City",
        "Lon": -77.0595389215,
        "LineCode4": null,
        "LineCode2": "YL",
        "LineCode3": null,
        "LineCode1": "BL",
        "StationTogether2": "",
        "Lat": 38.8618823867,
        "StationTogether1": ""
    },
    {
        "Code": "D07",
        "Name": "Potomac Avenue",
        "Lon": -76.9854953196,
        "LineCode4": null,
        "LineCode2": "OR",
        "LineCode3": null,
        "LineCode1": "BL",
        "StationTogether2": "",
        "Lat": 38.8812632736,
        "StationTogether1": ""
    },
    {
        "Code": "E08",
        "Name": "Prince Georges Plaza",
        "Lon": -76.9558815078,
        "LineCode4": null,
        "LineCode2": null,
        "LineCode3": null,
        "LineCode1": "GR",
        "StationTogether2": "",
        "Lat": 38.9653854458,
        "StationTogether1": ""
    },
    {
        "Code": "B04",
        "Name": "Rhode Island Avenue",
        "Lon": -76.9959369166,
        "LineCode4": null,
        "LineCode2": null,
        "LineCode3": null,
        "LineCode1": "RD",
        "StationTogether2": "",
        "Lat": 38.9210596891,
        "StationTogether1": ""
    },
    {
        "Code": "A14",
        "Name": "Rockville",
        "Lon": -77.1461253392,
        "LineCode4": null,
        "LineCode2": null,
        "LineCode3": null,
        "LineCode1": "RD",
        "StationTogether2": "",
        "Lat": 39.0843216075,
        "StationTogether1": ""
    },
    {
        "Code": "C05",
        "Name": "Rosslyn",
        "Lon": -77.0709086853,
        "LineCode4": null,
        "LineCode2": "OR",
        "LineCode3": null,
        "LineCode1": "BL",
        "StationTogether2": "",
        "Lat": 38.8959790962,
        "StationTogether1": ""
    },
    {
        "Code": "A15",
        "Name": "Shady Grove",
        "Lon": -77.1646273343,
        "LineCode4": null,
        "LineCode2": null,
        "LineCode3": null,
        "LineCode1": "RD",
        "StationTogether2": "",
        "Lat": 39.1199273249,
        "StationTogether1": ""
    },
    {
        "Code": "E02",
        "Name": "Shaw",
        "Lon": -77.0219117007,
        "LineCode4": null,
        "LineCode2": "YL",
        "LineCode3": null,
        "LineCode1": "GR",
        "StationTogether2": "",
        "Lat": 38.9134768711,
        "StationTogether1": ""
    },
    {
        "Code": "B08",
        "Name": "Silver Spring",
        "Lon": -77.0310178268,
        "LineCode4": null,
        "LineCode2": null,
        "LineCode3": null,
        "LineCode1": "RD",
        "StationTogether2": "",
        "Lat": 38.9939493747,
        "StationTogether1": ""
    },
    {
        "Code": "D02",
        "Name": "Smithsonian",
        "Lon": -77.0280662342,
        "LineCode4": null,
        "LineCode2": "OR",
        "LineCode3": null,
        "LineCode1": "BL",
        "StationTogether2": "",
        "Lat": 38.888018702,
        "StationTogether1": ""
    },
    {
        "Code": "F08",
        "Name": "Southern Ave",
        "Lon": -76.9750541388,
        "LineCode4": null,
        "LineCode2": null,
        "LineCode3": null,
        "LineCode1": "GR",
        "StationTogether2": "",
        "Lat": 38.8410857803,
        "StationTogether1": ""
    },
    {
        "Code": "D08",
        "Name": "Stadium Armory",
        "Lon": -76.9770889014,
        "LineCode4": null,
        "LineCode2": "OR",
        "LineCode3": null,
        "LineCode1": "BL",
        "StationTogether2": "",
        "Lat": 38.8867090898,
        "StationTogether1": ""
    },
    {
        "Code": "F10",
        "Name": "Suitland",
        "Lon": -76.9318701589,
        "LineCode4": null,
        "LineCode2": null,
        "LineCode3": null,
        "LineCode1": "GR",
        "StationTogether2": "",
        "Lat": 38.8439645544,
        "StationTogether1": ""
    },
    {
        "Code": "B07",
        "Name": "Takoma",
        "Lon": -77.0181766987,
        "LineCode4": null,
        "LineCode2": null,
        "LineCode3": null,
        "LineCode1": "RD",
        "StationTogether2": "",
        "Lat": 38.976078531,
        "StationTogether1": ""
    },
    {
        "Code": "A07",
        "Name": "Tenleytown",
        "Lon": -77.0795873255,
        "LineCode4": null,
        "LineCode2": null,
        "LineCode3": null,
        "LineCode1": "RD",
        "StationTogether2": "",
        "Lat": 38.9488514351,
        "StationTogether1": ""
    },
    {
        "Code": "A13",
        "Name": "Twinbrook",
        "Lon": -77.1208179517,
        "LineCode4": null,
        "LineCode2": null,
        "LineCode3": null,
        "LineCode1": "RD",
        "StationTogether2": "",
        "Lat": 39.0624676517,
        "StationTogether1": ""
    },
    {
        "Code": "E03",
        "Name": "U Street",
        "Lon": -77.0274958929,
        "LineCode4": null,
        "LineCode2": "YL",
        "LineCode3": null,
        "LineCode1": "GR",
        "StationTogether2": "",
        "Lat": 38.9170023992,
        "StationTogether1": ""
    },
    {
        "Code": "B03",
        "Name": "Union Station",
        "Lon": -77.0074142921,
        "LineCode4": null,
        "LineCode2": null,
        "LineCode3": null,
        "LineCode1": "RD",
        "StationTogether2": "",
        "Lat": 38.8977660392,
        "StationTogether1": ""
    },
    {
        "Code": "J02",
        "Name": "Van Dorn St",
        "Lon": -77.1291115237,
        "LineCode4": null,
        "LineCode2": null,
        "LineCode3": null,
        "LineCode1": "BL",
        "StationTogether2": "",
        "Lat": 38.799307672,
        "StationTogether1": ""
    },
    {
        "Code": "A06",
        "Name": "Van Ness UDC",
        "Lon": -77.0629861805,
        "LineCode4": null,
        "LineCode2": null,
        "LineCode3": null,
        "LineCode1": "RD",
        "StationTogether2": "",
        "Lat": 38.9432652883,
        "StationTogether1": ""
    },
    {
        "Code": "K08",
        "Name": "Vienna",
        "Lon": -77.2726222569,
        "LineCode4": null,
        "LineCode2": null,
        "LineCode3": null,
        "LineCode1": "OR",
        "StationTogether2": "",
        "Lat": 38.8776011238,
        "StationTogether1": ""
    },
    {
        "Code": "K03",
        "Name": "Virginia Square",
        "Lon": -77.1029772942,
        "LineCode4": null,
        "LineCode2": null,
        "LineCode3": null,
        "LineCode1": "OR",
        "StationTogether2": "",
        "Lat": 38.8833661518,
        "StationTogether1": ""
    },
    {
        "Code": "K06",
        "Name": "W Falls Church",
        "Lon": -77.1890948225,
        "LineCode4": null,
        "LineCode2": null,
        "LineCode3": null,
        "LineCode1": "OR",
        "StationTogether2": "",
        "Lat": 38.900780551,
        "StationTogether1": ""
    },
    {
        "Code": "F04",
        "Name": "Waterfront",
        "Lon": -77.0175052088,
        "LineCode4": null,
        "LineCode2": null,
        "LineCode3": null,
        "LineCode1": "GR",
        "StationTogether2": "",
        "Lat": 38.8764618668,
        "StationTogether1": ""
    },
    {
        "Code": "E07",
        "Name": "West Hyattsville",
        "Lon": -76.9695766751,
        "LineCode4": null,
        "LineCode2": null,
        "LineCode3": null,
        "LineCode1": "GR",
        "StationTogether2": "",
        "Lat": 38.9550401707,
        "StationTogether1": ""
    },
    {
        "Code": "B10",
        "Name": "Wheaton",
        "Lon": -77.0501070535,
        "LineCode4": null,
        "LineCode2": null,
        "LineCode3": null,
        "LineCode1": "RD",
        "StationTogether2": "",
        "Lat": 39.0375271436,
        "StationTogether1": ""
    },
    {
        "Code": "A12",
        "Name": "White Flint",
        "Lon": -77.112829859,
        "LineCode4": null,
        "LineCode2": null,
        "LineCode3": null,
        "LineCode1": "RD",
        "StationTogether2": "",
        "Lat": 39.0481513573,
        "StationTogether1": ""
    },
    {
        "Code": "A04",
        "Name": "Woodley Park Zoo",
        "Lon": -77.0524180207,
        "LineCode4": null,
        "LineCode2": null,
        "LineCode3": null,
        "LineCode1": "RD",
        "StationTogether2": "",
        "Lat": 38.9250851371,
        "StationTogether1": ""
    }
]